time.TIME;cueing_position.longitudinal;cueing_position.lateral;cueing_position.vertical;cueing_position.pitch;cueing_position.roll;cueing_position.yaw;;;;cueing_velocity.pitch;cueing_velocity.roll;in_cueing_velocity.yaw;cueing_acceleration.longitudinal;cueing_acceleration.lateral;cueing_acceleration.vertical;;;;in_chassis_acceleration.longitudinal;in_chassis_acceleration.lateral;in_chassis_acceleration.vertical;
0;2.26E-02;0;2.73E-04;2.85E-01;0;0;0;0;0;0.000569009;0;0;0.0144661;0;0.0017495;;;;0;0;0;0
0.005;9.04E-03;6.40E-08;1.12E-02;0.000101475;-4.20E-04;-8.58E-07;0;0;0;0.0197255;-8.39E-02;-1.72E-03;0.0144364;4.10E-02;0.00193609;;;;0.000817597;6.16E-03;2.20E-01;0
0.01;2.04E-01;1.18E-05;2.37E-02;0.000220631;-1.96E-03;-3.92E-05;0;0;0;0.0238122;-3.08E-02;-6.13E-03;0.0141734;6.30E-01;0.00062669;;;;0.0021076;9.39E-02;-0.000131961;0
0.015;3.67E-01;6.15E-05;3.39E-02;0.000319771;-4.73E-03;-1.07E-05;0;0;0;0.0197867;-5.54E-01;-1.36E-03;0.0148128;1.82E+00;-0.00210024;;;;0.00388045;2.56E-01;-0.000415542;0
0.02;5.87E-01;1.92E-04;3.30E-02;0.00043294;-8.68E-03;-2.34E-04;0;0;0;0.0225741;-7.89E-01;-2.53E-02;0.0169498;3.31E-01;-0.00505596;;;;0.00614345;4.65E-01;-0.00075376;0
0.025;8.75E-01;4.60E-04;1.02E-02;0.000528984;-1.43E-02;-4.44E-04;0;0;0;0.019128;-1.12E+00;-4.20E-02;0.0209703;5.36E+00;-0.00887592;;;;0.00894117;7.49E-01;-0.00119122;0
0.03;1.25E+00;9.30E-04;-4.46E-02;0.000632092;-2.22E-02;-7.73E-04;0;0;0;0.0205229;-1.59E+00;-6.57E-02;0.0274111;7.36E+00;-0.01166;;;;0.0125167;1.02E+00;-0.00152843;0
0.035;1.74E+00;1.68E-03;-1.44E-01;0.000719335;-3.34E-02;-1.26E-03;0;0;0;0.0173307;-2.23E+00;-9.64E-02;0.0367044;0.000103934;-0.0166157;;;;0.016936;1.46E+00;-0.00215846;0
0.04;2.38E+00;2.80E-03;-2.98E-01;0.000806392;-4.86E-02;-1.94E-03;0;0;0;0.0172772;-3.03E+00;-1.37E-01;0.0494847;0.000126937;-0.0186269;;;;0.0225675;1.74E+00;-0.00238957;0
0.045;3.22E+00;4.39E-04;-5.21E-01;0.000877111;-6.85E-02;-2.88E-04;0;0;0;0.0139937;-3.98E+00;-1.87E-01;0.0663474;0.000169109;-0.0253927;;;;0.02904;2.40E+00;-0.0033424;0
0.05;4.33E+00;6.57E-03;-8.24E-01;0.000940146;-9.40E-02;-4.14E-03;0;0;0;0.0124435;-5.08E+00;-2.50E-01;0.0879499;0.000192449;-0.0260138;;;;0.0366615;2.63E+00;-0.00332181;0
0.055;5.77E+00;9.44E-03;-1.22E+00;0.000984673;-1.26E-01;-5.76E-03;0;0;0;0.00873054;-6.31E+00;-3.23E-01;0.114704;0.000244093;-0.0340775;;;;0.0443721;3.51E+00;-0.0046346;0
0.06;7.65E+00;1.31E-02;-1.72E+00;0.00101399;-1.64E-01;-7.82E-04;0;0;0;0.00567931;-7.64E+00;-4.11E-01;0.146742;0.000263259;-0.0324624;;;;0.0526502;3.58E+00;-0.00416637;0
0.065;0.00010064;1.78E-02;-2.34E-01;0.00102152;-2.09E-01;-1.04E-02;0;0;0;0.00131864;-9.03E+00;-5.07E-01;0.183716;0.000317263;-0.0404519;;;;0.060003;4.65E+00;-0.00579194;0
0.07;0.000131459;2.35E-02;-3.08E+00;0.00100706;-2.62E-01;-1.34E-02;0;0;0;-0.00308287;-0.000104207;-6.14E-02;0.224751;0.000331458;-0.0379366;;;;0.0675856;4.50E+00;-0.00491622;0
0.075;0.000170254;3.04E-04;-3.95E-01;0.000967548;-3.21E-01;-1.71E-02;0;0;0;-0.00808837;-0.000117623;-7.23E-01;0.268918;0.000380151;-0.0466528;;;;0.0738968;5.69E-01;-0.00700689;0
0.08;0.000218433;3.85E-02;-4.96E+00;0.000900837;-3.86E-01;-2.13E-02;0;0;0;-0.0135214;-0.000130005;-8.42E-01;0.31499;0.000383742;-0.0442612;;;;0.081061;5.21E+00;-0.00574939;0
0.085;0.000277443;4.80E-02;-6.12E+00;0.000806617;-4.57E-01;-2.61E-02;0;0;0;-0.0190108;-0.000140681;-9.61E-01;0.362042;0.000412923;-0.0505025;;;;0.0877565;6.35E-01;-0.00800927;0
0.09;0.000348748;5.89E-02;-7.45E+00;0.000681803;-5.32E-01;-3.15E-02;0;0;0;-0.0251116;-0.000149011;-1.08E+00;0.409649;0.000408107;-0.0502595;;;;0.0965078;5.58E+00;-0.00659596;0
0.095;0.000433827;7.11E-02;-8.93E+00;0.000527667;-6.09E-01;-3.75E-02;0;0;0;-0.0309527;-0.00015465;-1.19E-01;0.458055;0.000408994;-0.0552033;;;;0.105866;6.52E+00;-0.00909296;0
0.1;0.000534192;8.48E-02;-0.000105969;0.000340307;-6.89E-01;-4.40E-02;0;0;0;-0.0375687;-0.00015754;-1.29E-01;0.508132;0.000394571;-0.0597162;;;;0.117927;5.49E+00;-0.00787763;0
0.105;0.000651419;9.98E-02;-0.00012458;0.000121394;-7.68E-01;-5.09E-02;0;0;0;-0.043844;-0.000157756;-1.37E+00;0.561151;0.000364361;-0.0646069;;;;0.130368;6.13E+00;-0.0106562;0
0.11;0.000787189;1.16E-01;-0.000145331;-0.000133787;-8.47E-01;-5.81E-02;0;0;0;-0.0510567;-0.000155462;-1.43E+00;0.61835;0.000327922;-0.0717515;;;;0.144528;4.70E+00;-0.00952745;0
0.115;0.000943318;1.34E-01;-0.00016836;-0.000423814;-9.23E-01;-6.54E-02;0;0;0;-0.0579781;-0.000150854;-1.45E+00;0.680502;0.000256018;-0.0734274;;;;0.157434;4.85E+00;-0.0121716;0
0.12;0.00112177;1.52E-01;-0.000193779;-0.000753583;-9.96E-01;-7.26E-02;0;0;0;-0.0658722;-0.000144076;-1.42E+00;0.747529;0.000182263;-0.0788091;;;;0.170241;2.85E+00;-0.0107637;0
0.125;0.00132463;1.71E-01;-0.00022161;-0.00112153;-1.06E+00;-7.93E-02;0;0;0;-0.0734457;-0.000135153;-1.34E+00;0.81838;6.24E+00;-0.0747175;;;;0.180255;2.38E+00;-0.0128884;0
0.13;0.00155407;1.90E-01;-0.00025181;-0.00153148;-1.13E+00;-8.54E-04;0;0;0;-0.081779;-0.000123984;-1.19E+00;0.891118;-5.51E+00;-0.0759811;;;;0.189312;-2.30E-03;-0.011002;0
0.135;0.00181227;2.09E-01;-0.000284252;-0.0019809;-1.18E-01;-9.03E-02;0;0;0;-0.0895956;-0.00011039;-9.80E-01;0.963329;-0.00022003;-0.0666309;;;;0.195716;-1.31E-01;-0.0125312;0
0.14;0.00210136;2.27E-01;-0.000318774;-0.00247164;-1.23E-01;-9.39E-02;0;0;0;-0.0977763;-9.42E+00;-6.91E-01;103.263;-0.000372715;-0.0654092;;;;0.202228;-4.39E+00;-0.0103656;0
0.145;0.00242332;2.45E-01;-0.00035519;-0.00299998;-1.27E+00;-9.56E-02;0;0;0;-0.105205;-7.54E-01;-3.30E-01;109.729;-0.000570299;-0.0546845;;;;0.207986;-5.95E-01;-0.0115991;0
0.15;0.00277999;2.60E-01;-0.000393351;-0.00356606;-1.30E+00;-9.52E-02;0;0;0;-0.112653;-5.41E+00;1.04E-01;115.664;-0.000741429;-0.0558868;;;;0.215895;-9.25E+00;-0.00972684;0
0.155;0.00317303;2.73E-01;-0.000433162;-0.00416589;-1.32E+00;-9.23E-02;0;0;0;-0.1193;-3.06E+00;6.01E-02;121.129;-0.000955279;-0.0484657;;;;0.224924;-0.000111089;-0.0110864;0
0.16;0.00360397;2.84E-01;-0.000474576;-0.00479915;-1.32E+00;-8.65E-02;0;0;0;-0.125874;-5.56E-01;1.16E-01;126.298;-0.00112965;-0.0528764;;;;0.236953;-0.000143857;-0.0096774;0
0.165;0.0040743;2.90E-01;-0.000517586;-0.00546288;-1.31E+00;-7.78E-03;0;0;0;-0.131849;2.01E+00;1.77E+00;131.412;-0.00134588;-0.0479856;;;;0.249947;-0.000164108;-0.0110752;0
0.17;0.0045855;2.93E-01;-0.000562191;-0.00615731;-1.29E+00;-6.57E-03;0;0;0;-0.137866;4.56E+00;2.43E+00;136.711;-0.00151991;-0.0527177;;;;0.264431;-0.000195892;-0.00990518;0
0.175;0.00513914;2.91E-01;-0.000608358;-0.00688089;-1.25E+00;-5.02E-02;0;0;0;-0.143568;7.02E-01;3.12E+00;142.368;-0.00173027;-0.045842;;;;0.277809;-0.000216933;-0.0108428;0
0.18;0.00573689;2.83E-01;-0.000655973;-0.00763423;-1.21E+00;-3.10E-02;0;0;0;-0.149384;9.33E+00;3.84E-01;148.434;-0.00190297;-0.0453683;;;;0.290195;-0.000247485;-0.00936778;0
0.185;0.00638055;2.69E-01;-0.000704824;-0.00841622;-1.15E+00;-8.15E-03;0;0;0;-0.154977;0.000114627;4.58E+00;154.826;-0.00210008;-0.0322545;;;;0.299746;-0.000268298;-0.00933665;0
0.19;0.00707196;2.49E-01;-0.000754595;-0.00922663;-1.09E+00;1.85E-02;0;0;0;-0.160514;0.000134306;5.33E+00;161.341;-0.00226055;-0.0250771;;;;0.307347;-0.000296099;-0.00738437;0
0.195;0.00781297;2.22E-01;-0.000804906;-0.0100635;-1.01E+00;4.89E-02;0;0;0;-0.165656;0.000152507;6.08E+00;167.718;-0.00243004;-0.00786113;;;;0.312778;-0.000314663;-0.00652055;0
0.2;0.00860534;1.87E-02;-0.000855337;-0.0109249;-9.28E-01;8.30E-02;0;0;0;-0.170412;0.000169478;6.82E+00;173.708;-0.00255554;0.00168784;;;;0.317903;-0.000336566;-0.0045161;0
0.205;0.00945067;1.45E-01;-0.000905505;-0.0118078;-8.36E-01;1.21E-01;0;0;0;-0.174545;0.000185411;7.53E+00;179.153;-0.00267649;0.0168191;;;;0.323707;-0.0003501;-0.00342603;0
0.21;0.0103504;9.39E-02;-0.000955148;-0.0127092;-7.37E-01;1.62E-01;0;0;0;-0.178091;0.000200196;8.20E+00;184.036;-0.00272827;0.0182755;;;;0.331861;-0.000360524;-0.00252568;0
0.215;0.0113058;3.46E-02;-0.00100421;-0.0136263;-6.31E-01;2.06E-01;0;0;0;-0.181051;0.000213203;8.82E+00;188.504;-0.00277446;0.0206565;;;;0.343124;-0.00036603;-0.00233957;0
0.22;0.012318;-3.33E-02;-0.00105273;-0.0145569;-5.20E-01;2.53E-01;0;0;0;-0.18359;0.000223744;9.37E+00;192.838;-0.00275686;0.0154376;;;;0.357696;-0.000365416;-0.00245715;0
0.225;0.0133882;-1.10E-01;-0.00110086;-0.0154998;-4.04E-01;3.03E-01;0;0;0;-0.185879;0.000231579;9.82E+00;197.385;-0.00270813;0.0109261;;;;0.374873;-0.000359846;-0.00273927;0
0.23;0.0145178;-1.94E-01;-0.00114873;-0.0164548;-2.86E-01;3.54E-01;0;0;0;-0.188112;0.000236576;0.000101562;202.474;-0.00261707;0.00753425;;;;0.393303;-0.00034818;-0.00298942;0
0.235;0.0157082;-2.86E-01;-0.00119643;-0.0174225;-1.67E-01;4.06E-01;0;0;0;-0.190489;0.000238486;0.000103633;208.324;-0.00248859;0.00437238;;;;0.411342;-0.000333143;-0.00300375;0
0.24;0.0169613;-3.86E-01;-0.00124395;-0.0184039;-4.88E-02;4.58E-01;0;0;0;-0.193062;0.000237309;0.000104318;214.986;-0.00234016;0.00902095;;;;0.427477;-0.000312944;-0.0026224;0
0.245;0.0182789;-4.93E-01;-0.00129114;-0.0194004;6.79E-02;5.10E-01;0;0;0;-0.195883;0.000233468;0.000103512;222.324;-0.00214881;0.0130927;;;;0.440731;-0.000290173;-0.00178618;0
0.25;0.0196632;-6.07E-01;-0.00133774;-0.0204123;1.82E-01;5.61E-01;0;0;0;-0.198791;0.000227773;0.000101173;230.046;-0.00195594;0.0264653;;;;0.450917;-0.000263555;-0.000551086;0
0.255;0.0211164;-7.26E-01;-0.0013834;-0.0212439;2.91E-01;6.10E-01;0;0;0;-0.162527;0.000218055;9.56E+00;237.603;-0.00168406;0.0353754;;;;0.44969;-0.000229637;0.000903697;0
0.26;0.0226405;-8.50E-01;-0.00142775;-0.0220364;3.93E-01;6.55E-01;0;0;0;-0.154573;0.000202626;8.83E+00;244.277;-0.00142279;0.0498362;;;;0.447457;-0.000194275;0.00231218;0
0.265;0.0242373;-9.78E-01;-0.00147048;-0.0228674;4.87E-01;6.95E-01;0;0;0;-0.162116;0.000186972;8.03E+00;249.632;-0.00112606;0.0547966;;;;0.445826;-0.000156836;0.00345617;0
0.27;0.0259081;-1.11E+00;-0.00151141;-0.0236644;5.75E-01;7.31E-01;0;0;0;-0.155186;0.000175634;7.09E+00;253.483;-0.000845094;0.061974;;;;0.446163;-0.000118808;0.00418938;0
0.275;0.0276535;-1.24E+00;-0.00155048;-0.0244843;6.59E-01;7.62E-01;0;0;0;-0.159586;0.000167693;6.08E+00;255.902;-0.000530156;0.0586124;;;;0.449219;-7.85E+00;0.0044796;0
0.28;0.0294742;-1.38E+00;-0.00158774;-0.0252733;7.41E-01;7.88E-01;0;0;0;-0.15329;0.000161648;4.96E+00;257.208;-0.00023476;0.0579166;;;;0.454947;-3.88E+00;0.00441803;0
0.285;0.0313701;-1.51E+00;-0.00162333;-0.0260724;8.20E-01;8.08E-01;0;0;0;-0.155139;0.000156718;3.79E+00;257.801;8.02E+00;0.0504472;;;;0.462522;1.88E-01;0.00419512;0
0.29;0.0333413;-1.65E-01;-0.00165738;-0.0268458;8.97E-01;8.21E-01;0;0;0;-0.149881;0.000152504;2.53E+00;258.101;0.000369489;0.0491618;;;;0.470585;4.05E+00;0.00404955;0
0.295;0.0353878;-1.78E+00;-0.00168995;-0.0276219;9.72E-01;8.28E-01;0;0;0;-0.150268;0.00014872;1.24E+00;258.403;0.000654594;0.0464209;;;;0.477605;7.73E+00;0.00420475;0
0.3;0.0375095;-1.91E+00;-0.001721;-0.0283796;1.05E+00;8.28E-01;0;0;0;-0.146442;0.000145238;-1.01E-01;258.858;0.000909437;0.0522999;;;;0.482295;0.000111124;0.00481022;0
0.305;0.0397064;-2.04E-01;-0.00175032;-0.0291362;1.12E+00;8.22E-01;0;0;0;-0.146087;0.000142148;-1.44E-01;259.422;0.00114006;0.059066;;;;0.483934;0.000140651;0.00590265;0
0.31;0.0419785;-2.17E+00;-0.00177759;-0.0298804;1.19E+00;8.09E-01;0;0;0;-0.143477;0.000139736;-2.77E-01;259.918;0.0013398;0.0726281;;;;0.48255;0.000167165;0.00739772;0
0.315;0.0443258;-2.29E+00;-0.00180242;-0.0306199;1.26E+00;7.89E-01;0;0;0;-0.142397;0.000138331;-4.07E+00;260.088;0.00151002;0.0850191;;;;0.478884;0.000188518;0.00911316;0
0.32;0.0467481;-2.40E+00;-0.00182438;-0.0313494;1.33E+00;7.63E-01;0;0;0;-0.140262;0.000138168;-5.30E+00;259.687;0.00165085;0.0991404;;;;0.474184;0.00020729;0.0108172;0
0.325;0.049245;-2.51E+00;-0.00184309;-0.032069;1.40E+00;7.32E-01;0;0;0;-0.138155;0.000139172;-6.43E-01;258.555;0.00179533;0.109043;;;;0.46982;0.00022561;0.0123502;0
0.33;0.051816;-2.62E+00;-0.00185835;-0.0327778;1.47E+00;6.95E-01;0;0;0;-0.135865;0.000140587;-7.47E+00;256.669;0.00188684;0.113022;;;;0.466996;0.000236938;0.0130829;0
0.335;0.0544602;-2.72E+00;-0.0018701;-0.033472;1.54E+00;6.54E-01;0;0;0;-0.132807;0.000141499;-8.39E+00;254.152;0.00197087;0.111228;;;;0.466519;0.000247872;0.0134511;0
0.34;0.0571766;-2.81E-01;-0.00187842;-0.0341545;1.62E+00;6.09E-01;0;0;0;-0.130348;0.000141596;-9.17E+00;251.246;0.00203677;0.109093;;;;0.468379;0.000255499;0.0135632;0
0.345;0.0599642;-2.90E+00;-0.00188341;-0.0348201;1.69E+00;5.60E-01;0;0;0;-0.126862;0.000140504;-9.82E-01;248.249;0.00208712;0.104687;;;;0.471903;0.000262062;0.0135643;0
0.35;0.0628219;-2.98E+00;-0.00188516;-0.0354752;1.76E+00;5.09E-01;0;0;0;-0.124625;0.000137419;-0.000103129;245.438;0.00211894;0.102342;;;;0.475948;0.000264955;0.0136178;0
0.355;0.0657488;-3.06E-01;-0.00188373;-0.0361148;1.83E+00;4.56E-02;0;0;0;-0.121415;0.000131715;-0.000106532;2.43;0.00212699;0.101278;;;;0.479214;0.000265897;0.0138697;0
0.36;0.068744;-3.13E+00;-0.00187909;-0.0367469;1.89E+00;4.03E-01;0;0;0;-0.119789;0.000123191;-0.000108307;240.986;0.00212301;0.103856;;;;0.48059;0.0002641;0.0144127;0
0.365;0.071807;-3.19E+00;-0.00187112;-0.0373665;1.95E+00;3.49E-01;0;0;0;-0.117201;0.000112006;-0.000108468;239.308;0.00208747;0.108928;;;;0.479447;0.000259043;0.0152605;0
0.37;0.074937;-3.25E+00;-0.00185963;-0.0379812;2.00E+00;2.95E-01;0;0;0;-0.116091;9.86E+00;-0.000106925;237.762;0.00204773;0.116402;;;;0.475787;0.000252915;0.0163432;0
0.375;0.0781334;-3.30E+00;-0.00184437;-0.0385853;2.04E+00;2.44E-01;0;0;0;-0.113873;8.35E+00;-0.000103787;236.093;0.00198232;0.124471;;;;0.470237;0.000243644;0.0175245;0
0.38;0.0813956;-3.34E+00;-0.00182509;-0.0391844;2.08E+00;1.95E-01;0;0;0;-0.112753;6.73E+00;-9.90E-01;23.406;0.00191691;0.131603;;;;0.463868;0.000234636;0.0186364;0
0.385;0.0847227;-3.38E+00;-0.00180162;-0.0397722;2.10E+00;1.48E-01;0;0;0;-0.110402;5.05E+00;-9.27E+00;231.506;0.00184413;0.136455;;;;0.457911;0.000224355;0.0195228;0
0.39;0.0881138;-3.42E+00;-0.00177385;-0.0403526;2.12E+00;1.06E-01;0;0;0;-0.10881;3.34E+00;-8.50E+00;228.393;0.00177067;0.137847;;;;0.453442;0.00021461;0.0200783;0
0.395;0.0915676;-3.45E+00;-0.00174179;-0.04092;2.13E+00;6.80E-02;0;0;0;-0.106113;1.61E+00;-7.61E+00;224.819;0.00170758;0.136078;;;;0.451111;0.000205893;0.0202734;0
0.4;0.0950829;-3.48E+00;-0.00170553;-0.0414778;2.13E+00;3.50E-02;0;0;0;-0.104086;-1.48E-01;-6.61E+00;220.983;0.00164126;0.131265;;;;0.451;0.000197131;0.0201575;0
0.405;0.0986584;-3.50E+00;-0.00166525;-0.0420224;2.13E+00;7.44E-03;0;0;0;-0.101342;-1.94E+00;-5.52E+00;217.143;0.00159138;0.125201;;;;0.452629;0.000190633;0.019842;0
0.41;0.102293;-3.51E-01;-0.00162113;-0.0425575;2.11E+00;-1.45E-02;0;0;0;-0.0993552;-3.78E-01;-4.38E+00;213.545;0.00153819;0.118676;;;;0.455108;0.000183515;0.0194678;0
0.415;0.105985;-3.53E+00;-0.00157336;-0.0430817;2.08E+00;-3.04E-03;0;0;0;-0.0970882;-5.66E+00;-3.19E+00;210.371;0.00149511;0.113589;;;;0.457389;0.000178347;0.0191653;0
0.42;0.109734;-3.53E+00;-0.00152207;-0.0435989;2.05E-01;-4.04E-02;0;0;0;-0.0956085;-7.57E+00;-1.99E+00;207.693;0.00145483;0.110336;;;;0.458565;0.000172998;0.0190533;0
0.425;0.113539;-3.54E-01;-0.00146731;-0.044109;2.00E+00;-4.44E-02;0;0;0;-0.0940826;-9.47E+00;-7.92E-01;205.469;0.00141164;0.109748;;;;0.458107;0.000167973;0.0191588;0
0.43;0.117399;-3.54E-01;-0.00140909;-0.044615;1.95E+00;-4.26E-02;0;0;0;-0.0931583;-0.000113078;3.78E-01;203.563;0.00137675;0.110118;;;;0.455989;0.000163675;0.0193811;0
0.435;0.121314;-3.54E+00;-0.00134739;-0.0451164;1.88E+00;-3.52E-02;0;0;0;-0.0921742;-0.000130318;1.50E+00;201.787;0.00133559;0.110863;;;;0.452704;0.000158912;0.0196122;0
0.44;0.125282;-3.53E+00;-0.0012822;-0.0456148;1.81E+00;-2.24E-02;0;0;0;-0.0914816;-0.000145886;2.56E+00;19.996;0.0013084;0.110157;;;;0.449112;0.000156152;0.0197135;0
0.445;0.129304;-3.52E-01;-0.00121358;-0.0461095;1.73E+00;-4.84E-03;0;0;0;-0.0906442;-0.000159467;3.53E+00;197.961;0.00127813;0.107248;;;;0.446207;0.00015272;0.0195552;0
0.45;0.133378;-3.51E+00;-0.00114168;-0.0466007;1.65E+00;1.72E-02;0;0;0;-0.0898826;-0.000170987;4.41E+00;195.761;0.00125672;0.101026;;;;0.444851;0.000151135;0.0190525;0
0.455;0.137503;-3.49E+00;-0.00106672;-0.0470881;1.56E+00;4.31E-02;0;0;0;-0.0890288;-0.000180585;5.18E+00;19.343;0.00124131;0.0918344;;;;0.445552;0.000149708;0.0181887;0
0.46;0.14168;-3.47E+00;-0.000989038;-0.0475722;1.47E+00;7.23E-02;0;0;0;-0.0882676;-0.000188579;5.84E+00;191.123;0.00122466;0.0800181;;;;0.448341;0.000148839;0.0170191;0
0.465;0.145906;-3.44E+00;-0.000909021;-0.0480535;1.37E+00;1.04E-01;0;0;0;-0.0876413;-0.000195353;6.37E+00;189.033;0.00122039;0.06704;;;;0.452774;0.000149146;0.0156558;0
0.47;0.150182;-3.42E+00;-0.000827071;-0.0485334;1.27E-01;1.38E-02;0;0;0;-0.0872754;-0.000201279;6.77E+00;187.342;0.00120367;0.054038;;;;0.458056;0.000147999;0.0142382;0
0.475;0.154506;-3.38E+00;-0.000743572;-0.0490137;1.17E+00;1.73E-01;0;0;0;-0.0872821;-0.000206613;7.03E+00;186.175;0.00119236;0.0424581;;;;0.463251;0.0001477;0.0128979;0
0.48;0.158879;-3.35E+00;-0.000658853;-0.0494963;1.07E-01;2.09E-01;0;0;0;-0.0876544;-0.000211443;7.15E-01;185.566;0.00116756;0.0329156;;;;0.467526;0.000145204;0.0117265;0
0.485;0.163301;-3.31E+00;-0.000573175;-0.0499834;9.60E-01;2.45E-02;0;0;0;-0.0884551;-0.000215693;7.14E+00;185.449;0.00113291;0.0257254;;;;0.470357;0.000141928;0.0107545;0
0.49;0.16777;-3.27E+00;-0.000486735;-0.0504762;8.51E-01;2.80E-01;0;0;0;-0.0895281;-0.000219141;7.00E+00;185.678;0.00109286;0.0203172;;;;0.471643;0.000137441;0.00994869;0
0.495;0.172287;-3.23E+00;-0.000399686;-0.0509761;7.41E-01;3.14E-01;0;0;0;-0.0908712;-0.000221515;6.74E+00;186.061;0.00103198;0.0158671;;;;0.471714;0.000130484;0.00922491;0
0.5;0.176853;-3.18E+00;-0.00031217;-0.0514834;6.30E-01;3.46E-01;0;0;0;-0.0922591;-0.000222558;6.37E+00;186.409;0.000971015;0.0112029;;;;0.471215;0.000123513;0.00847485;0
0.505;0.181467;-3.13E+00;-0.000224351;-0.0519984;5.20E-01;3.76E-02;0;0;0;-0.0936984;-0.000222123;5.91E+00;186.579;0.000890676;0.00540448;;;;0.470919;0.000113638;0.00759788;0
0.51;0.186129;-3.08E-01;-0.000136437;-0.0525203;4.10E-01;4.04E-01;0;0;0;-0.095009;-0.000220216;5.37E+00;186.504;0.000805907;-0.00213718;;;;0.471514;0.000103739;0.00652968;0
0.515;0.190839;-3.02E+00;-4.87E+00;-0.0530491;3.02E-01;4.28E-01;0;0;0;-0.0962761;-0.000216993;4.77E+00;186.203;0.000712649;-0.0114249;;;;0.473415;9.20E+00;0.00526009;0
0.52;0.195596;-2.96E+00;3.86E+00;-0.0535839;1.96E-01;4.49E-01;0;0;0;-0.0974185;-0.000212745;4.12E+00;185.764;0.000604538;-0.0219479;;;;0.476662;7.89E+00;0.00383541;0
0.525;0.200401;-2.91E+00;0.000125035;-0.0541251;9.20E-02;4.66E-01;0;0;0;-0.0985883;-0.000207801;3.44E+00;185.317;0.00049735;-0.0327866;;;;0.480917;6.54E+00;0.00234613;0
0.53;0.205253;-2.85E+00;0.000210353;-0.0546726;-9.18E-03;4.81E-01;0;0;0;-0.0997604;-0.000202478;2.76E+00;18.499;0.000368899;-0.0428637;;;;0.48556;4.92E+00;0.000902975;0
0.535;0.210153;-2.78E+00;0.000294252;-0.0552272;-1.08E-01;4.91E-01;0;0;0;-0.101072;-0.000196996;2.09E+00;184.874;0.000270474;-0.0506561;;;;0.489852;3.76E+00;-0.000322637;0
0.54;0.215099;-2.72E+00;0.00037655;-0.0557892;-2.04E-01;4.99E-01;0;0;0;-0.102475;-0.000191776;1.44E+00;184.993;0.000111059;-0.0545441;;;;0.493141;1.56E+00;-0.0011541;0
0.545;0.220092;-2.66E+00;0.000457148;-0.0563595;-2.97E-01;5.04E-02;0;0;0;-0.104032;-0.000187033;8.32E-01;185.298;-5.26E+00;-0.0568301;;;;0.495072;-3.66E-01;-0.00184195;0
0.55;0.225132;-2.60E+00;0.00053599;-0.0569383;-3.89E-01;5.05E-01;0;0;0;-0.105624;-0.000182009;2.73E-01;185.682;-0.000193628;-0.0581477;;;;0.495593;-2.31E+00;-0.00238216;0
0.555;0.230219;-2.54E+00;0.00061305;-0.0575255;-4.77E-01;5.05E-01;0;0;0;-0.107214;-0.000176018;-2.22E-01;186.009;-0.00036289;-0.0583952;;;;0.494989;-4.38E+00;-0.00281789;0
0.56;0.235353;-2.48E+00;0.000688317;-0.0581205;-5.62E-01;5.02E-02;0;0;0;-0.108672;-0.000169141;-6.48E-02;186.144;-0.000508338;-0.0587647;;;;0.493803;-6.33E+00;-0.00322061;0
0.565;0.240534;-2.42E-01;0.000761773;-0.0587224;-6.44E-02;4.97E-01;0;0;0;-0.109958;-0.000161586;-1.00E+00;185.993;-0.000673926;-0.0595618;;;;0.492682;-8.41E+00;-0.00366544;0
0.57;0.245761;-2.36E+00;0.000833372;-0.05933;-7.21E-01;4.92E-01;0;0;0;-0.110999;-0.000153383;-1.28E+00;185.524;-0.000816093;-0.0616145;;;;0.492202;-0.000102621;-0.00420713;0
0.575;0.251034;-2.31E+00;0.000903031;-0.0599423;-7.94E-01;4.85E-01;0;0;0;-0.111818;-0.000144564;-1.48E+00;184.769;-0.000961919;-0.0647524;;;;0.492729;-0.000121305;-0.00486366;0
0.58;0.256353;-2.26E+00;0.000970638;-0.0605582;-8.62E-01;4.77E-02;0;0;0;-0.112429;-0.000135291;-1.62E+00;18.382;-0.00109917;-0.068866;;;;0.494325;-0.000139033;-0.00560676;0
0.585;0.261718;-2.21E+00;0.00103607;-0.0611769;-9.26E-01;4.69E-01;0;0;0;-0.112907;-0.000125743;-1.69E+00;182.798;-0.00122069;-0.0726145;;;;0.496757;-0.000154539;-0.00631519;0
0.59;0.267128;-2.17E+00;0.00109921;-0.0617982;-9.85E-01;4.61E-01;0;0;0;-0.113309;-0.000116062;-1.70E+00;181.825;-0.00133969;-0.0759578;;;;0.499542;-0.000170057;-0.00698853;0
0.595;0.272582;-2.13E+00;0.00115996;-0.0624221;-1.04E+00;4.53E-02;0;0;0;-0.113702;-0.000106417;-1.65E+00;18.099;-0.00144287;-0.078393;;;;0.502111;-0.000183065;-0.00755788;0
0.6;0.27808;-2.09E+00;0.00121829;-0.0630485;-1.09E+00;4.46E-01;0;0;0;-0.114118;-9.70E+00;-1.55E+00;180.332;-0.00154574;-0.0793522;;;;0.503957;-0.000196738;-0.00797638;0
0.605;0.283622;-2.06E+00;0.00127417;-0.0636776;-1.13E+00;4.39E-01;0;0;0;-0.114561;-8.77E+00;-1.41E+00;179.826;-0.00163732;-0.0789347;;;;0.504763;-0.000208138;-0.00823253;0
0.61;0.289208;-2.04E+00;0.00132763;-0.0643096;-1.17E+00;4.33E-01;0;0;0;-0.115001;-7.84E+00;-1.22E+00;179.403;-0.00171915;-0.0773062;;;;0.504486;-0.000219124;-0.00835256;0
0.615;0.294837;-2.02E-01;0.00137874;-0.0649439;-1.21E+00;4.29E-01;0;0;0;-0.115385;-6.88E+00;-1.00E+00;178.963;-0.00179823;-0.0751962;;;;0.503355;-0.000229055;-0.00839333;0
0.62;0.300509;-2.00E+00;0.00142756;-0.0655802;-1.24E+00;4.25E-01;0;0;0;-0.115655;-5.88E+00;-7.49E-01;178.406;-0.00185656;-0.0731827;;;;0.501811;-0.000236702;-0.00842686;0
0.625;0.306224;-1.99E+00;0.00147413;-0.0662175;-1.27E+00;4.23E-01;0;0;0;-0.115757;-4.82E+00;-4.74E-01;177.663;-0.00191444;-0.072026;;;;0.500378;-0.00024425;-0.00852189;0
0.63;0.311981;-1.99E+00;0.00151847;-0.0668549;-1.28E+00;4.23E-01;0;0;0;-0.115668;-3.71E+00;-1.77E-01;176.708;-0.00194934;-0.0720296;;;;0.499533;-0.000248442;-0.00872648;0
0.635;0.317781;-1.99E+00;0.00156056;-0.0674915;-1.30E+00;4.24E-02;0;0;0;-0.115387;-2.56E-01;1.32E-02;175.572;-0.00197705;-0.0733763;;;;0.499581;-0.000252408;-0.00905675;0
0.64;0.323621;-2.00E+00;0.00160034;-0.0681264;-1.31E+00;4.26E-01;0;0;0;-0.114953;-1.40E-02;4.50E-01;174.327;-0.00199011;-0.075732;;;;0.500586;-0.000253539;-0.0094944;0
0.645;0.329503;-2.01E+00;0.00163773;-0.0687592;-1.31E+00;4.31E-01;0;0;0;-0.114416;-2.42E-01;7.68E-01;173.072;-0.00198567;-0.0786654;;;;0.502368;-0.000253404;-0.00999273;0
0.65;0.335424;-2.03E+00;0.00167263;-0.0693897;-1.31E+00;4.36E-01;0;0;0;-0.113844;8.79E-01;1.08E+00;171.906;-0.00197807;-0.0814885;;;;0.504557;-0.000251971;-0.0104903;0
0.655;0.341386;-2.06E+00;0.00170497;-0.0700179;-1.30E+00;4.44E-01;0;0;0;-0.113292;1.95E+00;1.38E+00;170.903;-0.00194737;-0.0836804;;;;0.506703;-0.000248222;-0.0109269;0
0.66;0.347387;-2.09E+00;0.00173469;-0.0706442;-1.28E+00;4.52E-03;0;0;0;-0.1128;2.95E+00;1.67E+00;170.096;-0.00191964;-0.08481;;;;0.508396;-0.000244531;-0.0112596;0
0.665;0.353427;-2.13E+00;0.00176178;-0.071269;-1.27E+00;4.62E-01;0;0;0;-0.112376;3.88E+00;1.93E+00;169.472;-0.00187024;-0.0848144;;;;0.509373;-0.00023802;-0.0114728;0
0.67;0.359506;-2.17E+00;0.00178624;-0.0718924;-1.24E+00;4.74E-01;0;0;0;-0.112008;4.76E+00;2.16E+00;168.976;-0.00182156;-0.0838537;;;;0.509584;-0.000231969;-0.0115808;0
0.675;0.365624;-2.22E+00;0.00180811;-0.0725146;-1.22E-02;4.86E-01;0;0;0;-0.111658;5.59E+00;2.36E+00;168.532;-0.00175768;-0.0823741;;;;0.509193;-0.000223308;-0.0116229;0
0.68;0.37178;-2.27E+00;0.00182745;-0.0731354;-1.19E+00;4.99E-01;0;0;0;-0.111287;6.38E-01;2.53E+00;168.059;-0.00168753;-0.0808828;;;;0.50853;-0.00021466;-0.0116514;0
0.685;0.377973;-2.33E+00;0.00184428;-0.0737546;-1.15E+00;5.13E-01;0;0;0;-0.110854;7.14E+00;2.65E+00;1.675;-0.00160939;-0.0798803;;;;0.507998;-0.000204051;-0.0117175;0
0.69;0.384205;-2.39E+00;0.00185863;-0.0743718;-1.11E+00;5.27E-01;0;0;0;-0.110341;7.87E+00;2.73E+00;166.829;-0.00151832;-0.0796739;;;;0.507962;-0.000192671;-0.0118568;0
0.695;0.390474;-2.46E-01;0.00187048;-0.0749866;-1.07E+00;5.41E-01;0;0;0;-0.109749;8.57E+00;2.76E+00;166.062;-0.00142529;-0.0803372;;;;0.508656;-0.000180226;-0.0120809;0
0.7;0.396779;-2.53E-01;0.00187981;-0.0755986;-1.03E+00;5.55E-01;0;0;0;-0.109103;9.21E+00;2.74E+00;16.525;-0.0013168;-0.0816763;;;;0.510128;-0.000166411;-0.0123746;0
0.705;0.403122;-2.60E+00;0.00188656;-0.0762078;-9.79E-01;5.69E-01;0;0;0;-0.108443;9.79E+00;2.68E+00;164.463;-0.001211;-0.0832982;;;;0.512235;-0.000152559;-0.0127008;0
0.71;0.4095;-2.68E+00;0.00189069;-0.0768144;-9.28E-01;5.82E-01;0;0;0;-0.107816;0.000102964;2.56E+00;163.772;-0.00109197;-0.0847198;;;;0.514685;-0.000137135;-0.0130105;0
0.715;0.415915;-2.76E+00;0.00189216;-0.0774188;-8.75E-01;5.95E-01;0;0;0;-0.107265;0.000107111;2.40E+00;163.228;-0.000978585;-0.0854873;;;;0.51712;-0.000122625;-0.0132561;0
0.72;0.422365;-2.84E+00;0.00189096;-0.0780214;-8.21E-01;6.06E-01;0;0;0;-0.106814;0.000110365;2.19E+00;162.855;-0.000857543;-0.0853068;;;;0.519212;-0.000106701;-0.0134032;0
0.725;0.42885;-2.93E+00;0.00188712;-0.0786228;-7.65E-01;6.17E-02;0;0;0;-0.10647;0.000112775;1.93E+00;162.636;-0.000742154;-0.0840938;;;;0.520746;-9.22E+00;-0.0134391;0
0.73;0.435371;-3.02E+00;0.00188067;-0.0792234;-7.09E-01;6.25E-01;0;0;0;-0.106215;0.000114452;1.64E+00;162.528;-0.000626386;-0.0820095;;;;0.52167;-7.68E-02;-0.0133748;0
0.735;0.441926;-3.11E-01;0.0018717;-0.0798236;-6.52E-01;6.32E-02;0;0;0;-0.10602;0.000115537;1.32E+00;162.465;-0.000512608;-0.0793824;;;;0.5221;-6.27E+00;-0.013241;0
0.74;0.448517;-3.20E+00;0.00186029;-0.0804233;-5.94E-01;6.38E-01;0;0;0;-0.105845;0.000116156;9.78E-01;162.383;-0.000406874;-0.0766422;;;;0.522283;-4.87E+00;-0.0130794;0
0.745;0.455142;-3.29E+00;0.00184651;-0.0810227;-5.37E-01;6.42E-01;0;0;0;-0.105657;0.000116409;6.17E-01;162.231;-0.000296498;-0.0741755;;;;0.522525;-3.49E+00;-0.0129308;0
0.75;0.461802;-3.38E+00;0.00183044;-0.0816214;-4.79E-01;6.43E-01;0;0;0;-0.105433;0.000116329;2.43E-01;161.986;-0.000200329;-0.0722534;;;;0.523105;-2.24E+00;-0.0128246;0
0.755;0.468496;-3.47E+00;0.00181212;-0.0822193;-4.21E-02;6.43E-01;0;0;0;-0.105171;0.000115902;-1.32E-01;161.655;-9.67E+00;-0.0709414;;;;0.524207;-9.21E-01;-0.0127716;0
0.76;0.475225;-3.57E+00;0.00179159;-0.0828162;-3.64E-01;6.41E-01;0;0;0;-0.104883;0.000115055;-5.08E-01;161.272;-8.45E-01;-0.0701146;;;;0.525869;1.94E-01;-0.0127619;0
0.765;0.481987;-3.66E+00;0.00176886;-0.0834123;-3.08E-01;6.37E-01;0;0;0;-0.104596;0.000113692;-8.73E-01;160.889;8.07E+00;-0.0694799;;;;0.527985;1.35E+00;-0.0127683;0
0.77;0.488783;-3.75E+00;0.00174396;-0.0840075;-2.52E-01;6.32E-01;0;0;0;-0.104341;0.00011173;-1.22E+00;160.556;0.000159364;-0.0686784;;;;0.530333;2.31E+00;-0.0127545;0
0.775;0.495613;-3.84E+00;0.00171693;-0.0846022;-1.98E-03;6.25E-01;0;0;0;-0.104147;0.000109108;-1.54E+00;160.314;0.000226878;-0.0673691;;;;0.53264;3.18E-01;-0.0126849;0
0.78;0.502475;-3.93E+00;0.0016878;-0.0851969;-1.45E-01;6.16E-01;0;0;0;-0.104031;0.000105825;-1.83E-01;160.178;0.00029375;-0.0653324;;;;0.534653;4.00E+00;-0.0125342;0
0.785;0.509371;-4.02E+00;0.00165667;-0.0857919;-9.43E-02;6.06E-01;0;0;0;-0.103993;0.00010192;-2.07E+00;160.138;0.000342036;-0.0625123;;;;0.536203;4.59E+00;-0.0122935;0
0.79;0.5163;-4.11E+00;0.00162362;-0.0863875;-4.57E-02;5.96E-01;0;0;0;-0.104019;9.75E+00;-2.27E+00;160.159;0.000393188;-0.0590388;;;;0.537248;5.24E+00;-0.0119725;0
0.795;0.523261;-4.20E+00;0.00158876;-0.0869838;6.01E-04;5.84E-02;0;0;0;-0.104083;9.27E+00;-2.42E+00;160.195;0.000429985;-0.0551766;;;;0.537874;5.65E+00;-0.0115962;0
0.8;0.530256;-4.28E+00;0.00155223;-0.0875811;4.44E-03;5.72E-01;0;0;0;-0.104153;8.76E+00;-2.52E+00;160.195;0.000463337;-0.0512649;;;;0.538267;6.08E+00;-0.0111981;0
0.805;0.537283;-4.37E+00;0.00151413;-0.0881791;8.56E-02;5.59E-02;0;0;0;-0.1042;8.23E+00;-2.58E+00;160.121;0.000495622;-0.0476171;;;;0.53866;6.44E-01;-0.0108114;0
0.81;0.544342;-4.45E+00;0.00147457;-0.0887775;1.24E-01;5.47E-01;0;0;0;-0.104206;7.69E+00;-2.59E+00;159.956;0.000515299;-0.0444525;;;;0.539271;6.68E-02;-0.0104607;0
0.815;0.551434;-4.53E+00;0.00143364;-0.0893763;1.60E-01;5.35E-01;0;0;0;-0.104165;7.15E+00;-2.55E+00;159.705;0.000544195;-0.0419806;;;;0.540236;7.03E+00;-0.0101724;0
0.82;0.558558;-4.61E+00;0.00139141;-0.0899752;1.93E-01;5.23E-01;0;0;0;-0.104084;6.60E+00;-2.48E+00;159.393;0.000559389;-0.0400341;;;;0.541592;7.18E+00;-0.00992905;0
0.825;0.565714;-4.69E+00;0.00134793;-0.090574;2.24E-03;5.11E-01;0;0;0;-0.103981;6.04E+00;-2.37E+00;159.058;0.00057991;-0.0382994;;;;0.543263;7.46E+00;-0.0097058;0
0.83;0.572901;-4.76E+00;0.00130326;-0.0911728;2.51E-01;5.01E-01;0;0;0;-0.103878;5.46E+00;-2.23E+00;158.741;0.000595968;-0.0365374;;;;0.545083;7.60E+00;-0.00947562;0
0.835;0.580119;-4.84E+00;0.00125746;-0.0917717;2.76E-01;4.91E-01;0;0;0;-0.103798;4.88E+00;-2.08E+00;158.472;0.000604515;-0.0344644;;;;0.546848;7.73E+00;-0.00921217;0
0.84;0.587369;-4.91E+00;0.0012106;-0.0923709;2.97E-01;4.82E-01;0;0;0;-0.103752;4.29E+00;-1.90E+00;158.264;0.000620324;-0.0319366;;;;0.548367;7.89E+00;-0.00889656;0
0.845;0.59465;-4.98E+00;0.00116276;-0.0929705;3.16E-01;4.73E-01;0;0;0;-0.103741;3.69E+00;-1.71E+00;158.111;0.000619785;-0.0288945;;;;0.54951;7.87E+00;-0.00852265;0
0.85;0.601962;-5.05E+00;0.00111405;-0.0935706;3.32E-01;4.66E-01;0;0;0;-0.103755;3.11E+00;-1.51E+00;15.799;0.000628794;-0.025453;;;;0.550245;7.99E+00;-0.00809829;0
0.855;0.609304;-5.12E+00;0.00106457;-0.0941713;3.45E-01;4.60E-01;0;0;0;-0.103772;2.54E+00;-1.31E-01;157.865;0.000626148;-0.0218039;;;;0.550634;7.91E+00;-0.00764299;0
0.86;0.616677;-5.18E+00;0.00101445;-0.0947726;3.55E-01;4.55E-01;0;0;0;-0.10377;2.00E+00;-1.11E-01;1.577;0.000623277;-0.0182189;;;;0.550818;7.89E+00;-0.00718326;0
0.865;0.62408;-5.24E-01;0.000963778;-0.095374;3.63E-01;4.51E-01;0;0;0;-0.103726;1.51E-01;-9.12E-01;157.467;0.000623521;-0.0151306;;;;0.550963;7.86E+00;-0.00676757;0
0.87;0.631513;-5.31E+00;0.000912648;-0.0959755;3.69E-01;4.48E-01;0;0;0;-0.103625;1.05E+00;-7.22E-01;157.153;0.000611565;-0.0125211;;;;0.551243;7.71E+00;-0.00638972;0
0.875;0.638977;-5.37E+00;0.000861135;-0.0965766;3.72E-01;4.45E-01;0;0;0;-0.103462;6.40E-01;-5.38E-01;15.676;0.00061085;-0.0103473;;;;0.551769;7.70E+00;-0.00605705;0
0.88;0.646469;-5.42E+00;0.0008093;-0.0971772;3.74E-01;4.44E-01;0;0;0;-0.103245;2.70E-01;-3.68E-01;15.631;0.000595859;-0.00862712;;;;0.552572;7.47E+00;-0.00576585;0
0.885;0.653992;-5.48E+00;0.000757192;-0.0977769;3.74E-01;4.43E-01;0;0;0;-0.102989;-6.62E-02;-2.07E-01;15.583;0.000587171;-0.00714113;;;;0.553599;7.39E+00;-0.00550229;0
0.89;0.661543;-5.53E+00;0.000704856;-0.0983758;3.72E-01;4.43E-01;0;0;0;-0.102711;-3.74E-02;-6.25E-02;155.352;0.000574579;-0.00574183;;;;0.554733;7.18E+00;-0.00524667;0
0.895;0.669123;-5.59E-01;0.000652338;-0.0989737;3.69E-01;4.44E-01;0;0;0;-0.10243;-6.60E-01;6.87E-02;1.549;0.000554148;-0.00419467;;;;0.555823;6.95E+00;-0.00497956;0
0.9;0.676731;-5.64E+00;0.000599691;-0.0995707;3.65E-01;4.45E-02;0;0;0;-0.102156;-9.26E-01;1.86E-01;154.486;0.000542265;-0.00240802;;;;0.556728;6.77E+00;-0.00468696;0
0.905;0.684368;-5.69E+00;0.000546974;-0.100167;3.60E-01;4.47E-01;0;0;0;-0.101892;-1.17E-01;2.86E-01;154.108;0.000513757;-0.000320154;;;;0.557355;6.40E+00;-0.00436398;0
0.91;0.692033;-5.73E+00;0.000494257;-0.100762;3.53E-01;4.49E-03;0;0;0;-0.101632;-1.40E+00;3.76E-01;153.749;0.000495606;0.0019775;;;;0.557677;6.18E+00;-0.00401645;0
0.915;0.699726;-5.78E-01;0.000441612;-0.101357;3.45E-02;4.52E-01;0;0;0;-0.101363;-1.60E+00;4.48E-01;153.385;0.000466389;0.00434992;;;;0.557741;5.76E+00;-0.00365871;0
0.92;0.707446;-5.82E+00;0.000389111;-0.10195;3.37E-01;4.55E-01;0;0;0;-0.10107;-1.78E+00;5.11E-01;152.993;0.000437034;0.00659811;;;;0.55765;5.42E+00;-0.00331013;0
0.925;0.715194;-5.87E+00;0.00033682;-0.102543;3.27E-01;4.58E-01;0;0;0;-0.100739;-1.93E+00;5.62E-01;152.551;0.000411554;0.00854988;;;;0.557537;5.05E+00;-0.00298962;0
0.93;0.722969;-5.91E+00;0.000284795;-0.103134;3.17E-01;4.61E-01;0;0;0;-0.100361;-2.05E+00;6.01E-01;152.051;0.000373635;0.0100825;;;;0.557525;4.58E+00;-0.00271133;0
0.935;0.73077;-5.95E+00;0.000233075;-0.103723;3.07E-01;4.65E-01;0;0;0;-0.0999334;-2.15E+00;6.34E-02;151.496;0.000349147;0.0111576;;;;0.557701;4.26E+00;-0.00248104;0
0.94;0.738598;-5.99E+00;0.000181688;-0.10431;2.96E-01;4.69E-01;0;0;0;-0.0994641;-2.24E+00;6.56E-01;150.902;0.000310808;0.0118336;;;;0.558089;3.74E+00;-0.00229532;0
0.945;0.746452;-6.03E+00;0.000130652;-0.104896;2.85E-01;4.72E-02;0;0;0;-0.0989648;-2.31E+00;6.74E-01;15.029;0.000281019;0.0122287;;;;0.558654;3.38E+00;-0.00214313;0
0.95;0.754332;-6.07E-01;8.00E+00;-0.105479;2.73E-01;4.76E-01;0;0;0;-0.0984505;-2.38E+00;6.84E-01;149.684;0.00024875;0.0125117;;;;0.559311;2.92E+00;-0.00200881;0
0.955;0.762238;-6.11E+00;2.97E+00;-0.10606;2.61E-01;4.80E-01;0;0;0;-0.0979354;-2.45E+00;6.88E-01;149.103;0.000210899;0.0128263;;;;0.559949;2.46E+00;-0.00187692;0
0.96;0.770168;-6.15E+00;-2.03E+00;-0.106639;2.49E-01;4.84E-02;0;0;0;-0.0974291;-2.52E-01;6.89E-01;148.556;0.000184013;0.0132872;;;;0.560465;2.09E+00;-0.00173588;0
0.965;0.778124;-6.19E-01;-6.98E+00;-0.107216;2.36E-01;4.88E-01;0;0;0;-0.0969348;-2.59E+00;6.84E-01;148.043;0.000142631;0.0139198;;;;0.560788;1.55E+00;-0.00158116;0
0.97;0.786104;-6.22E+00;-0.000118872;-0.107791;2.23E-01;4.91E-01;0;0;0;-0.0964495;-2.67E+00;6.78E-02;147.552;0.00011495;0.0146897;;;;0.560897;1.22E+00;-0.00141597;0
0.975;0.794109;-6.26E+00;-0.000167525;-0.108365;2.09E-01;4.95E-01;0;0;0;-0.0959647;-2.74E+00;6.66E-01;147.066;7.81E+00;0.0154864;;;;0.560824;6.99E-01;-0.00124995;0
0.98;0.802138;-6.30E+00;-0.000215707;-0.108936;1.96E-01;4.99E-01;0;0;0;-0.0954699;-2.81E+00;6.54E-01;146.567;4.45E+00;0.0161836;;;;0.560643;3.07E-01;-0.00109659;0
0.985;0.81019;-6.34E+00;-0.0002634;-0.109505;1.81E-01;5.02E-01;0;0;0;-0.094955;-2.87E-01;6.38E-01;14.604;1.67E+00;0.0166447;;;;0.56045;-9.23E-02;-0.000969565;0
0.99;0.818267;-6.37E+00;-0.000310594;-0.110071;1.67E-01;5.06E-01;0;0;0;-0.0944139;-2.91E+00;6.20E-01;145.479;-2.08E+00;0.0167918;;;;0.560334;-5.52E-01;-0.000878546;0
0.995;0.826366;-6.41E+00;-0.000357291;-0.110636;1.52E-01;5.09E-01;0;0;0;-0.0938457;-2.95E+00;6.01E-01;144.885;-4.24E+00;0.0166003;;;;0.560358;-8.32E-01;-0.000826734;0
1;0.834488;-6.45E+00;-0.000403499;-0.111198;1.38E-01;5.13E-01;0;0;0;-0.0932549;-2.98E+00;5.78E-01;144.268;-7.65E+00;0.0161193;;;;0.560543;-1.29E+00;-0.000811059;0
1.005;0.842633;-6.48E+00;-0.000449236;-0.111757;1.23E-01;5.16E-02;0;0;0;-0.0926507;-3.00E+00;5.55E-01;143.644;-9.86E+00;0.0154373;;;;0.560864;-1.54E+00;-0.000822882;0
1.01;0.850801;-6.52E+00;-0.000494526;-0.112313;1.08E-01;5.19E-02;0;0;0;-0.092044;-3.01E+00;5.28E-01;14.303;-0.000122961;0.0146812;;;;0.561257;-1.89E+00;-0.000850151;0
1.015;0.85899;-6.56E+00;-0.000539391;-0.112868;9.27E-02;5.22E-02;0;0;0;-0.0914451;-3.03E+00;5.00E-01;142.438;-0.000149661;0.0139608;;;;0.561645;-2.19E+00;-0.000881042;0
1.02;0.867201;-6.60E+00;-0.000583851;-0.113419;7.76E-02;5.25E-01;0;0;0;-0.0908611;-3.04E+00;4.69E-01;141.876;-0.000164697;0.0133609;;;;0.561951;-2.41E-01;-0.000906481;0
1.025;0.875434;-6.64E+00;-0.000627923;-0.113968;6.24E-02;5.27E-01;0;0;0;-0.0902946;-3.05E+00;4.34E-02;141.342;-0.000192812;0.0129068;;;;0.562123;-2.76E+00;-0.000922597;0
1.03;0.883688;-6.68E+00;-0.000671618;-0.114515;4.72E-02;5.30E-01;0;0;0;-0.0897433;-3.05E-01;3.99E-02;14.083;-0.000204937;0.0125725;;;;0.562143;-2.90E+00;-0.000931171;0
1.035;0.891962;-6.72E+00;-0.000714946;-0.11506;3.20E-02;5.32E-01;0;0;0;-0.0892011;-3.04E+00;3.58E-01;140.326;-0.000227335;0.0122848;;;;0.562034;-3.21E+00;-0.000938685;0
1.04;0.900257;-6.76E-01;-0.000757917;-0.115602;1.70E-02;5.34E-01;0;0;0;-0.0886604;-3.02E+00;3.17E-01;139.817;-0.00024323;0.0119496;;;;0.561848;-3.37E+00;-0.000954518;0
1.045;0.908573;-6.80E+00;-0.000800543;-0.116142;2.04E-03;5.36E-01;0;0;0;-0.0881136;-2.98E+00;2.72E-01;139.293;-0.000255427;0.011477;;;;0.561653;-3.56E+00;-0.000987798;0
1.05;0.916908;-6.85E+00;-0.000842841;-0.11668;-1.26E-02;5.37E-02;0;0;0;-0.087556;-2.93E+00;2.25E-01;138.747;-0.000275509;0.0108065;;;;0.561513;-3.78E+00;-0.00104537;0
1.055;0.925264;-6.89E+00;-0.000884837;-0.117215;-2.70E-02;5.39E-02;0;0;0;-0.0869866;-2.86E+00;1.77E-01;138.181;-0.000279731;0.00992392;;;;0.561475;-3.84E+00;-0.00112929;0
1.06;0.933638;-6.94E+00;-0.00092656;-0.117748;-4.09E-02;5.40E-01;0;0;0;-0.0864083;-2.78E+00;1.24E-01;137.602;-0.000297462;0.00886239;;;;0.561553;-4.07E+00;-0.00123705;0
1.065;0.942032;-6.98E+00;-0.000968044;-0.118278;-5.44E-02;5.41E-01;0;0;0;-0.0858272;-2.69E+00;7.22E-02;13.702;-0.000300885;0.00768313;;;;0.56173;-4.07E+00;-0.00136288;0
1.07;0.950445;-7.03E+00;-0.00100933;-0.118806;-6.74E-02;5.41E-01;0;0;0;-0.0852508;-2.59E+00;1.51E-02;136.447;-0.000309606;0.00647407;;;;0.561963;-4.22E+00;-0.00149789;0
1.075;0.958877;-7.08E+00;-0.00105045;-0.119331;-7.99E-02;5.41E-01;0;0;0;-0.0846862;-2.49E-01;-4.29E-02;135.892;-0.000317893;0.00531775;;;;0.562195;-4.27E-01;-0.00163347;0
1.08;0.967326;-7.13E+00;-0.00109144;-0.119854;-9.19E-02;5.41E-01;0;0;0;-0.0841383;-2.38E+00;-1.03E-01;13.536;-0.000316955;0.00427278;;;;0.562372;-4.29E+00;-0.00176286;0
1.085;0.975794;-7.18E+00;-0.00113233;-0.120375;-1.03E-01;5.41E-01;0;0;0;-0.0836085;-2.26E+00;-1.67E-01;134.852;-0.000328715;0.00336075;;;;0.562455;-4.41E+00;-0.00188312;0
1.09;0.98428;-7.23E+00;-0.00117314;-0.120893;-1.14E-01;5.40E-01;0;0;0;-0.0830952;-2.14E+00;-2.30E-01;13.436;-0.000324336;0.00268502;;;;0.562435;-4.34E+00;-0.00198104;0
1.095;0.992783;-7.28E-01;-0.0012139;-0.12141;-1.24E-01;5.39E-02;0;0;0;-0.0825931;-2.02E+00;-2.96E-01;133.878;-0.000333139;0.00216647;;;;0.562325;-4.47E+00;-0.00206677;0
1.1;10.013;-7.33E+00;-0.00125462;-0.121924;-1.34E-01;5.38E-02;0;0;0;-0.0820957;-1.88E-02;-3.61E-01;133.395;-0.000332949;0.0015382;;;;0.562157;-4.42E+00;-0.00216503;0
1.105;100.984;-7.38E+00;-0.00129533;-0.122437;-1.43E-01;5.36E-02;0;0;0;-0.0815981;-1.74E+00;-4.26E-01;132.904;-0.000332837;0.000775123;;;;0.561982;-4.46E+00;-0.00227827;0
1.11;101.839;-7.44E+00;-0.00133604;-0.122947;-1.51E-01;5.34E-01;0;0;0;-0.0810968;-1.59E+00;-4.91E-01;1.324;-0.000339192;-0.00012424;;;;0.561844;-4.50E+00;-0.0024082;0
1.115;102.697;-7.50E-01;-0.0013768;-0.123455;-1.58E-01;5.32E-01;0;0;0;-0.0805908;-1.43E+00;-5.52E-01;131.884;-0.000331868;-0.00115668;;;;0.561777;-4.41E+00;-0.00255436;0
1.12;103.555;-7.55E+00;-0.00141763;-0.123961;-1.65E-01;5.29E-01;0;0;0;-0.0800817;-1.27E-01;-6.14E-01;13.136;-0.000339746;-0.00228289;;;;0.561792;-4.51E+00;-0.00271401;0
1.125;104.416;-7.61E+00;-0.00145856;-0.124464;-1.70E-01;5.26E-01;0;0;0;-0.0795734;-1.11E+00;-6.70E-01;130.835;-0.000332726;-0.00346158;;;;0.561878;-4.39E+00;-0.00288255;0
1.13;105.277;-7.67E+00;-0.00149965;-0.124966;-1.75E-01;5.23E-01;0;0;0;-0.0790707;-9.60E-01;-7.26E-01;130.319;-0.00033463;-0.00463077;;;;0.562005;-4.45E+00;-0.00305427;0
1.135;106.141;-7.73E+00;-0.00154091;-0.125465;-1.80E-01;5.19E-01;0;0;0;-0.0785783;-8.13E-01;-7.75E-02;129.816;-0.000334349;-0.00567049;;;;0.562135;-4.40E+00;-0.00321513;0
1.14;107.006;-7.79E-01;-0.00158239;-0.125963;-1.83E-01;5.16E-01;0;0;0;-0.0780988;-6.74E-01;-8.22E-01;129.332;-0.000327718;-0.00660242;;;;0.562228;-4.35E+00;-0.00336949;0
1.145;107.872;-7.85E+00;-0.0016241;-0.126458;-1.86E-01;5.12E-02;0;0;0;-0.0776335;-5.45E-01;-8.65E-01;128.865;-0.00033365;-0.00748272;;;;0.562258;-4.40E+00;-0.0035193;0
1.15;10.874;-7.92E+00;-0.00166609;-0.126952;-1.88E-02;5.08E-01;0;0;0;-0.0771815;-4.23E-01;-9.01E-01;128.413;-0.000323205;-0.00828861;;;;0.562216;-4.26E+00;-0.00366419;0
1.155;109.609;-7.98E+00;-0.00170836;-0.127444;-1.90E-06;5.04E-01;0;0;0;-0.0767396;-3.07E-01;-9.36E-02;127.968;-0.000327472;-0.00906423;;;;0.56211;-4.34E+00;-0.00380646;0
1.16;11.048;-8.05E+00;-0.00175095;-0.127933;-1.91E-01;4.99E-01;0;0;0;-0.0763039;-2.00E-01;-9.64E-01;127.526;-0.000321342;-0.00983518;;;;0.561965;-4.22E+00;-0.00395022;0
1.165;111.352;-8.11E+00;-0.00179388;-0.128422;-1.92E-01;4.95E-01;0;0;0;-0.0758705;-9.94E-02;-9.89E-01;127.079;-0.000317161;-0.0106545;;;;0.561814;-4.21E+00;-0.00409955;0
1.17;112.225;-8.18E+00;-0.00183718;-0.128908;-1.92E-01;4.90E-01;0;0;0;-0.0754367;-7.03E-03;-1.01E+00;126.626;-0.000318408;-0.0115409;;;;0.561688;-4.19E+00;-0.00425773;0
1.175;1.131;-8.25E+00;-0.00188087;-0.129392;-1.92E-01;4.85E-01;0;0;0;-0.0750015;7.77E-02;-1.03E+00;126.166;-0.000306376;-0.0125099;;;;0.561611;-4.05E+00;-0.00442574;0
1.18;113.976;-8.31E+00;-0.00192499;-0.129875;-1.91E-01;4.80E-01;0;0;0;-0.074566;1.54E-01;-1.04E+00;125.703;-0.000309986;-0.0135384;;;;0.56159;-4.10E+00;-0.00460232;0
1.185;114.854;-8.38E+00;-0.00196957;-0.130356;-1.90E-01;4.76E-01;0;0;0;-0.0741324;2.19E-01;-1.05E+00;12.524;-0.000297066;-0.0144138;;;;0.561621;-3.91E+00;-0.00476296;0
1.19;115.732;-8.46E+00;-0.00201464;-0.130835;-1.89E-01;4.71E-01;0;0;0;-0.0737035;2.71E-01;-1.05E+00;124.785;-0.000294897;-0.0152551;;;;0.561682;-3.92E+00;-0.00492579;0
1.195;116.612;-8.53E-01;-0.00206021;-0.131312;-1.88E-01;4.66E-01;0;0;0;-0.0732822;3.11E-01;-1.06E+00;12.434;-0.000289799;-0.0161138;;;;0.561745;-3.80E+00;-0.00508765;0
1.2;117.493;-8.60E-01;-0.00210633;-0.131788;-1.86E-01;4.61E-01;0;0;0;-0.072871;3.43E-01;-1.06E+00;12.391;-0.000278389;-0.0168713;;;;0.561785;-3.70E+00;-0.00524331;0
1.205;118.376;-8.67E+00;-0.002153;-0.132262;-1.85E-01;4.56E-01;0;0;0;-0.0724706;3.66E-01;-1.06E+00;123.493;-0.000279043;-0.0175581;;;;0.561783;-3.68E+00;-0.00538967;0
1.21;119.259;-8.75E+00;-0.00220025;-0.132734;-1.83E-01;4.51E-01;0;0;0;-0.0720802;3.84E-01;-1.06E+00;123.088;-0.000263087;-0.0181226;;;;0.561732;-3.48E+00;-0.00552588;0
1.215;120.144;-8.82E-01;-0.0022481;-0.133205;-1.81E-01;4.46E-01;0;0;0;-0.0716974;3.97E-01;-1.06E-01;122.691;-0.000263046;-0.0186214;;;;0.561639;-3.50E+00;-0.00565327;0
1.22;12.103;-8.90E+00;-0.00229657;-0.133674;-1.79E-01;4.41E-01;0;0;0;-0.0713192;4.08E-01;-1.05E+00;122.297;-0.000251001;-0.0190553;;;;0.561519;-3.30E+00;-0.00577483;0
1.225;121.917;-8.97E-01;-0.00234565;-0.134142;-1.77E-01;4.36E-02;0;0;0;-0.0709426;4.16E-01;-1.06E+00;121.902;-0.000242801;-0.0194822;;;;0.561395;-3.24E+00;-0.00589375;0
1.23;122.805;-9.05E+00;-0.00239538;-0.134608;-1.75E-01;4.31E-01;0;0;0;-0.0705654;4.20E-01;-1.06E+00;121.504;-0.000239936;-0.0199117;;;;0.561289;-3.16E+00;-0.00601301;0
1.235;123.694;-9.13E+00;-0.00244576;-0.135073;-1.73E-01;4.26E-01;0;0;0;-0.0701869;4.22E-01;-1.06E+00;121.103;-0.000224204;-0.0203706;;;;0.561217;-2.99E+00;-0.00613404;0
1.24;124.584;-9.21E+00;-0.0024968;-0.135536;-1.72E-01;4.21E-01;0;0;0;-0.0698074;4.26E-01;-1.06E+00;120.702;-0.000225102;-0.0208465;;;;0.561184;-2.99E+00;-0.00625675;0
1.245;125.475;-9.29E+00;-0.00254853;-0.135997;-1.70E-01;4.16E-01;0;0;0;-0.0694288;4.30E-01;-1.06E+00;120.303;-0.000209981;-0.0213286;;;;0.561187;-2.78E+00;-0.00637959;0
1.25;126.367;-9.37E+00;-0.00260096;-0.136457;-1.68E-01;4.11E-01;0;0;0;-0.0690531;4.33E-01;-1.07E+00;11.991;-0.000206239;-0.0217876;;;;0.561212;-2.77E+00;-0.00649987;0
1.255;12.726;-9.45E+00;-0.0026541;-0.136916;-1.66E-01;4.06E-01;0;0;0;-0.0686827;4.35E-02;-1.07E+00;119.527;-0.000199434;-0.0221979;;;;0.561242;-2.63E+00;-0.00661494;0
1.26;128.154;-9.53E+00;-0.00270797;-0.137372;-1.63E-01;4.01E-01;0;0;0;-0.0683192;4.37E-01;-1.08E+00;119.155;-0.000187429;-0.0225412;;;;0.561258;-2.52E+00;-0.00672244;0
1.265;129.049;-9.61E+00;-0.00276257;-0.137828;-1.61E-01;3.96E-01;0;0;0;-0.067963;4.37E-01;-1.09E+00;118.794;-0.000188578;-0.0228051;;;;0.561248;-2.51E+00;-0.0068213;0
1.27;129.945;-9.69E+00;-0.00281791;-0.138282;-1.59E-01;3.91E-01;0;0;0;-0.0676137;4.37E-01;-1.10E+00;118.442;-0.000173393;-0.0230002;;;;0.561206;-2.31E+00;-0.00691169;0
1.275;130.842;-9.78E+00;-0.002874;-0.138735;-1.57E-01;3.85E-02;0;0;0;-0.06727;4.36E-01;-1.11E+00;118.098;-0.00017483;-0.0231342;;;;0.561137;-2.36E+00;-0.00699485;0
1.28;131.739;-9.86E+00;-0.00293084;-0.139186;-1.55E-01;3.80E-02;0;0;0;-0.0669297;4.35E-01;-1.12E+00;117.758;-0.000165517;-0.0232372;;;;0.56105;-2.19E+00;-0.00707295;0
1.285;132.638;-9.94E+00;-0.00298843;-0.139636;-1.53E-01;3.75E-01;0;0;0;-0.0665911;4.34E-01;-1.14E+00;11.742;-0.000159817;-0.0233214;;;;0.560961;-2.17E+00;-0.00714793;0
1.29;133.537;-0.000100282;-0.00304678;-0.140084;-1.51E-01;3.69E-01;0;0;0;-0.0662528;4.32E-01;-1.15E-05;117.081;-0.000160334;-0.023412;;;;0.560884;-2.14E+00;-0.00722173;0
1.295;134.437;-0.000101131;-0.00310589;-0.140531;-1.49E-01;3.64E-01;0;0;0;-0.0659142;4.30E-02;-1.16E+00;116.743;-0.000148083;-0.0235058;;;;0.56083;-2.01E+00;-0.00729476;0
1.3;135.338;-0.000101985;-0.00316577;-0.140977;-1.47E-01;3.58E-01;0;0;0;-0.0655756;4.27E-01;-1.18E+00;116.406;-0.000153344;-0.0236028;;;;0.560804;-2.07E+00;-0.00736657;0
1.305;13.624;-0.000102843;-0.00322641;-0.141421;-1.45E-01;3.52E-01;0;0;0;-0.065238;4.21E-01;-1.19E+00;116.071;-0.000142549;-0.0236845;;;;0.560802;-1.91E+00;-0.00743591;0
1.31;137.143;-0.000103706;-0.00328783;-0.141864;-1.43E-01;3.47E-01;0;0;0;-0.0649028;4.13E-01;-1.20E+00;115.743;-0.000143498;-0.0237365;;;;0.560817;-1.97E+00;-0.00750076;0
1.315;138.046;-0.000104573;-0.00335001;-0.142306;-1.42E-01;3.41E-01;0;0;0;-0.0645716;4.01E-01;-1.21E+00;115.422;-0.000141774;-0.0237375;;;;0.560836;-1.90E+00;-0.0075594;0
1.32;13.895;-0.000105445;-0.00341297;-0.142746;-1.40E-01;3.35E-01;0;0;0;-0.0642454;3.86E-01;-1.22E-01;11.511;-0.000134446;-0.0236793;;;;0.560848;-1.85E+00;-0.00761027;0
1.325;139.854;-0.000106321;-0.00347669;-0.143185;-1.38E-01;3.29E-01;0;0;0;-0.0639244;3.67E-01;-1.23E+00;114.807;-0.000140941;-0.023554;;;;0.560843;-1.91E+00;-0.00765289;0
1.33;140.759;-0.000107201;-0.00354117;-0.143623;-1.36E-01;3.23E-01;0;0;0;-0.0636083;3.44E-01;-1.24E+00;114.513;-0.000130467;-0.0233718;;;;0.560819;-1.78E+00;-0.00768757;0
1.335;141.665;-0.000108085;-0.00360642;-0.14406;-1.35E-01;3.17E-01;0;0;0;-0.0632963;3.20E-01;-1.25E+00;114.224;-0.000136858;-0.0231407;;;;0.560777;-1.89E+00;-0.00771541;0
1.34;142.572;-0.000108974;-0.00367241;-0.144495;-1.34E-01;3.11E-01;0;0;0;-0.0629869;2.92E-01;-1.26E+00;11.394;-0.000132379;-0.0228822;;;;0.560724;-1.79E+00;-0.00773816;0
1.345;143.479;-0.000109867;-0.00373915;-0.144929;-1.32E-01;3.05E-01;0;0;0;-0.0626789;2.64E-01;-1.26E+00;113.659;-0.000130907;-0.0226085;;;;0.560671;-1.82E+00;-0.00775731;0
1.35;144.387;-0.000110764;-0.00380661;-0.145362;-1.31E-01;2.99E-01;0;0;0;-0.0623713;2.34E-01;-1.27E+00;113.379;-0.000136115;-0.0223347;;;;0.560625;-1.85E+00;-0.00777429;0
1.355;145.295;-0.000111665;-0.00387481;-0.145793;-1.31E-01;2.93E-01;0;0;0;-0.0620638;2.04E-01;-1.27E+00;113.101;-0.000127609;-0.0220637;;;;0.560595;-1.76E+00;-0.00778966;0
1.36;146.204;-0.000112571;-0.00394372;-0.146224;-1.30E-01;2.86E-01;0;0;0;-0.0617564;1.72E-01;-1.28E+00;112.824;-0.000136919;-0.0217939;;;;0.560584;-1.89E-01;-0.00780328;0
1.365;147.114;-0.00011348;-0.00401334;-0.146653;-1.29E-01;2.80E-01;0;0;0;-0.0614499;1.40E-02;-1.28E+00;112.552;-0.00013039;-0.0215167;;;;0.560589;-1.78E+00;-0.00781446;0
1.37;148.024;-0.000114394;-0.00408366;-0.147081;-1.29E-01;2.74E-01;0;0;0;-0.0611451;1.07E-01;-1.29E+00;112.284;-0.000134299;-0.0212196;;;;0.560605;-1.87E+00;-0.00782188;0
1.375;148.934;-0.000115313;-0.00415468;-0.147507;-1.29E-01;2.68E-01;0;0;0;-0.0608431;7.37E-02;-1.29E+00;112.022;-0.000135759;-0.0208918;;;;0.560625;-1.84E-01;-0.00782452;0
1.38;149.845;-0.000116235;-0.00422637;-0.147933;-1.28E-01;2.61E-01;0;0;0;-0.0605443;4.15E-02;-1.29E+00;111.768;-0.00013046;-0.0205248;;;;0.560641;-1.82E+00;-0.00782134;0
1.385;150.757;-0.000117162;-0.00429873;-0.148357;-1.29E-01;2.55E-01;0;0;0;-0.060249;8.49E-03;-1.29E+00;11.152;-0.000139744;-0.0201159;;;;0.560647;-1.92E+00;-0.00781207;0
1.39;151.668;-0.000118093;-0.00437175;-0.14878;-1.29E-01;2.49E-02;0;0;0;-0.059957;-2.54E-03;-1.30E+00;111.279;-0.000131479;-0.0196697;;;;0.56064;-1.81E+00;-0.00779699;0
1.395;152.581;-0.000119029;-0.00444541;-0.149202;-1.29E-01;2.42E-01;0;0;0;-0.0596675;-5.92E-02;-1.30E+00;111.043;-0.00013999;-0.0191937;;;;0.560622;-1.95E+00;-0.00777682;0
1.4;153.494;-0.000119969;-0.0045197;-0.149623;-1.30E-01;2.36E-01;0;0;0;-0.0593798;-9.26E-02;-1.30E+00;110.812;-0.000138835;-0.0187068;;;;0.560597;-1.89E-01;-0.00775354;0
1.405;154.407;-0.000120913;-0.0045946;-0.150042;-1.31E-01;2.30E-01;0;0;0;-0.0590932;-1.22E-01;-1.30E+00;110.583;-0.000138674;-0.0182295;;;;0.560571;-1.94E+00;-0.00772927;0
1.41;155.321;-0.000121862;-0.0046701;-0.150461;-1.31E-02;2.23E-01;0;0;0;-0.058807;-1.48E-01;-1.31E+00;110.356;-0.000146145;-0.0177637;;;;0.560552;-1.99E+00;-0.00770427;0
1.415;156.235;-0.000122816;-0.00474618;-0.150878;-1.32E-01;2.17E-01;0;0;0;-0.0585208;-1.70E-01;-1.31E-01;110.131;-0.000139144;-0.0172809;;;;0.560543;-1.93E+00;-0.00767555;0
1.42;157.149;-0.000123774;-0.00482282;-0.151294;-1.33E-01;2.10E-01;0;0;0;-0.0582347;-1.91E-01;-1.31E+00;109.909;-0.000150166;-0.0167857;;;;0.560547;-2.08E-01;-0.00764421;0
1.425;158.064;-0.000124737;-0.00490002;-0.151709;-1.35E-01;2.04E-01;0;0;0;-0.0579491;-2.11E-02;-1.32E+00;10.969;-0.000144649;-0.0162916;;;;0.560562;-1.97E+00;-0.00761107;0
1.43;158.979;-0.000125704;-0.00497776;-0.152123;-1.36E-01;1.97E-01;0;0;0;-0.0576646;-2.27E-01;-1.32E+00;109.475;-0.000149733;-0.0157862;;;;0.560585;-2.09E+00;-0.00757529;0
1.435;159.894;-0.000126677;-0.00505602;-0.152536;-1.37E-01;1.91E-01;0;0;0;-0.0573819;-2.43E-01;-1.32E+00;109.265;-0.000153582;-0.0152675;;;;0.56061;-2.09E+00;-0.00753642;0
1.44;16.081;-0.000127654;-0.00513479;-0.152947;-1.39E-01;1.84E-01;0;0;0;-0.0571014;-2.56E-01;-1.33E+00;109.061;-0.000149341;-0.0147283;;;;0.560632;-2.08E+00;-0.00749392;0
1.445;161.726;-0.000128636;-0.00521404;-0.153358;-1.40E-01;1.78E-01;0;0;0;-0.0568231;-2.68E-01;-1.33E+00;108.863;-0.000160737;-0.0141704;;;;0.560647;-2.20E+00;-0.00744781;0
1.45;162.642;-0.000129623;-0.00529377;-0.153767;-1.42E-01;1.71E-01;0;0;0;-0.0565469;-2.77E-01;-1.34E+00;108.669;-0.000153546;-0.0135968;;;;0.560653;-2.10E+00;-0.00739847;0
1.455;163.559;-0.000130616;-0.00537394;-0.154176;-1.43E-01;1.65E-01;0;0;0;-0.0562723;-2.83E-01;-1.34E+00;10.848;-0.000163233;-0.0130137;;;;0.56065;-2.26E+00;-0.00734648;0
1.46;164.475;-0.000131613;-0.00545456;-0.154583;-1.45E-01;1.58E-01;0;0;0;-0.0559986;-2.89E-01;-1.35E-01;108.294;-0.000162837;-0.0124303;;;;0.560642;-2.21E+00;-0.00729287;0
1.465;165.392;-0.000132616;-0.00553559;-0.154989;-1.46E-02;1.51E-01;0;0;0;-0.055725;-2.90E-02;-1.35E+00;108.111;-0.000163474;-0.011821;;;;0.560633;-2.27E+00;-0.00723461;0
1.47;16.631;-0.000133624;-0.00561701;-0.155394;-1.48E-01;1.45E-01;0;0;0;-0.0554511;-2.90E-02;-1.36E-01;107.929;-0.000172903;-0.0112046;;;;0.560627;-2.35E+00;-0.00717456;0
1.475;167.227;-0.000134637;-0.00569882;-0.155798;-1.50E-01;1.38E-01;0;0;0;-0.0551764;-2.88E-01;-1.36E+00;107.749;-0.000166239;-0.0106237;;;;0.560625;-2.29E+00;-0.00711632;0
1.48;168.145;-0.000135656;-0.00578099;-0.1562;-1.51E-01;1.31E-01;0;0;0;-0.0549007;-2.82E-01;-1.37E+00;107.571;-0.000178619;-0.0100693;;;;0.560629;-2.45E+00;-0.00705958;0
1.485;169.062;-0.000136681;-0.0058635;-0.156602;-1.53E-01;1.24E-02;0;0;0;-0.0546243;-2.75E-01;-1.37E+00;107.395;-0.000174398;-0.0095364;;;;0.560639;-2.37E+00;-0.00700376;0
1.49;16.998;-0.000137711;-0.00594634;-0.157003;-1.54E-01;1.17E-01;0;0;0;-0.0543473;-2.66E-01;-1.38E+00;107.222;-0.000179874;-0.00901238;;;;0.560653;-2.49E+00;-0.00694791;0
1.495;170.899;-0.000138747;-0.0060295;-0.157402;-1.55E-01;1.11E-01;0;0;0;-0.0540702;-2.56E-01;-1.38E+00;107.052;-0.000185349;-0.00849286;;;;0.560668;-2.51E+00;-0.00689157;0
1.5;171.817;-0.000139789;-0.00611294;-0.1578;-1.57E-01;1.04E-01;0;0;0;-0.0537931;-2.44E-03;-1.38E+00;106.886;-0.000181194;-0.00797205;;;;0.560679;-2.50E+00;-0.00683423;0
1.505;172.735;-0.000140836;-0.00619667;-0.158197;-1.58E-01;9.67E-03;0;0;0;-0.053516;-2.32E-01;-1.39E+00;106.723;-0.000193696;-0.00744955;;;;0.560686;-2.64E+00;-0.0067759;0
1.51;173.654;-0.00014189;-0.00628067;-0.158593;-1.59E-01;8.98E-02;0;0;0;-0.0532388;-2.18E-01;-1.39E-01;106.563;-0.000186958;-0.00692881;;;;0.560687;-2.54E+00;-0.00671689;0
1.515;174.572;-0.00014295;-0.00636491;-0.158988;-1.61E-01;8.28E-02;0;0;0;-0.0529612;-2.04E-01;-1.39E+00;106.407;-0.000196889;-0.00641123;;;;0.560682;-2.71E+00;-0.00665742;0
1.52;175.491;-0.000144016;-0.00644938;-0.159382;-1.62E-01;7.59E-02;0;0;0;-0.052683;-1.89E-01;-1.39E+00;106.253;-0.000197663;-0.00590259;;;;0.560673;-2.67E+00;-0.00659809;0
1.525;176.409;-0.000145088;-0.00653406;-0.159775;-1.63E-01;6.89E-02;0;0;0;-0.0524036;-1.72E-01;-1.39E+00;1.061;-0.000197675;-0.00541114;;;;0.560663;-2.73E+00;-0.00653988;0
1.53;177.328;-0.000146167;-0.00661895;-0.160166;-1.64E-01;6.19E-02;0;0;0;-0.052123;-1.56E-01;-1.39E+00;105.949;-0.000208242;-0.0049433;;;;0.560654;-2.82E+00;-0.00648346;0
1.535;178.247;-0.000147253;-0.00670403;-0.160556;-1.64E-01;5.50E-02;0;0;0;-0.0518411;-1.40E-01;-1.39E+00;1.058;-0.000201486;-0.00449979;;;;0.560647;-2.75E+00;-0.00642912;0
1.54;179.166;-0.000148344;-0.00678928;-0.160946;-1.65E-01;4.80E-02;0;0;0;-0.0515578;-1.25E-01;-1.39E+00;105.652;-0.000214228;-0.00408052;;;;0.560645;-2.93E+00;-0.00637689;0
1.545;180.085;-0.000149443;-0.00687469;-0.161333;-1.66E-01;4.10E-03;0;0;0;-0.0512733;-1.12E-02;-1.39E+00;105.506;-0.000210553;-0.00369358;;;;0.560645;-2.85E-01;-0.00632794;0
1.55;181.003;-0.000150548;-0.00696024;-0.16172;-1.67E-01;3.40E-02;0;0;0;-0.050988;-9.91E-02;-1.39E+00;105.362;-0.000215365;-0.00332666;;;;0.560648;-2.97E+00;-0.0062807;0
1.555;181.922;-0.000151661;-0.00704594;-0.162106;-1.67E-01;2.69E-02;0;0;0;-0.0507019;-8.92E-02;-1.40E+00;105.221;-0.000221617;-0.00297173;;;;0.56065;-3.00E+00;-0.006235;0
1.56;182.841;-0.00015278;-0.00713176;-0.16249;-1.68E-01;1.99E-02;0;0;0;-0.0504154;-8.05E-02;-1.40E+00;105.082;-0.000216327;-0.00263046;;;;0.560651;-2.97E+00;-0.0061905;0
1.565;18.376;-0.000153906;-0.0072177;-0.162873;-1.68E-01;1.28E-02;0;0;0;-0.0501287;-7.42E-02;-1.40E+00;104.946;-0.00022888;-0.00229393;;;;0.560648;-3.12E+00;-0.00614678;0
1.57;184.678;-0.00015504;-0.00730375;-0.163255;-1.69E-01;5.70E-03;0;0;0;-0.0498417;-7.02E-02;-1.41E+00;104.813;-0.000221521;-0.00196837;;;;0.560641;-3.01E+00;-0.00610415;0
1.575;185.597;-0.00015618;-0.00738989;-0.163636;-1.69E-01;-1.45E-03;0;0;0;-0.0495543;-6.72E-02;-1.42E+00;104.682;-0.000229819;-0.00165422;;;;0.560631;-3.16E+00;-0.00606291;0
1.58;186.516;-0.000157328;-0.00747612;-0.164016;-1.70E-02;-8.64E-03;0;0;0;-0.0492665;-6.64E-02;-1.42E+00;104.553;-0.000229916;-0.00135763;;;;0.560617;-3.11E+00;-0.00602355;0
1.585;187.434;-0.000158483;-0.00756243;-0.164394;-1.70E-01;-1.59E-02;0;0;0;-0.0489779;-6.53E-02;-1.43E+00;104.425;-0.000227317;-0.00107811;;;;0.560602;-3.13E+00;-0.00598617;0
1.59;188.353;-0.000159646;-0.0076488;-0.164772;-1.71E-02;-2.32E-03;0;0;0;-0.0486885;-6.47E-02;-1.44E+00;104.299;-0.000236522;-0.000819306;;;;0.560587;-3.21E+00;-0.00595116;0
1.595;189.271;-0.000160816;-0.00773524;-0.165148;-1.71E-01;-3.05E-03;0;0;0;-0.0483982;-6.37E-02;-1.45E-01;104.175;-0.000227038;-0.000581687;;;;0.560573;-3.10E+00;-0.00591865;0
1.6;190.189;-0.000161993;-0.00782173;-0.165522;-1.72E-01;-3.79E-02;0;0;0;-0.048107;-6.15E-02;-1.46E+00;104.051;-0.000237272;-0.000364305;;;;0.560561;-3.25E+00;-0.00588861;0
1.605;191.107;-0.000163178;-0.00790827;-0.165896;-1.72E-01;-4.54E-02;0;0;0;-0.047815;-5.91E-02;-1.47E+00;10.393;-0.000231459;-0.000167382;;;;0.560551;-3.14E+00;-0.00586112;0
1.61;192.025;-0.00016437;-0.00799485;-0.166268;-1.73E-01;-5.30E-02;0;0;0;-0.0475224;-5.44E-03;-1.48E+00;10.381;-0.000232879;1.25E+00;;;;0.560542;-3.21E+00;-0.00583586;0
1.615;192.943;-0.000165569;-0.00808147;-0.166639;-1.73E-02;-6.06E-02;0;0;0;-0.0472294;-4.93E-02;-1.50E+00;103.692;-0.000237273;0.00017606;;;;0.560532;-3.22E+00;-0.00581286;0
1.62;19.386;-0.000166776;-0.00816812;-0.167009;-1.73E-01;-6.83E-02;0;0;0;-0.0469361;-4.22E-02;-1.51E+00;103.576;-0.000228836;0.000325207;;;;0.560522;-3.15E+00;-0.00579187;0
1.625;194.778;-0.000167991;-0.0082548;-0.167378;-1.74E-01;-7.60E-03;0;0;0;-0.0466426;-3.37E-02;-1.52E-01;103.462;-0.000239314;0.000461197;;;;0.560508;-3.27E+00;-0.00577286;0
1.63;195.695;-0.000169212;-0.0083415;-0.167745;-1.74E-01;-8.38E-02;0;0;0;-0.0463489;-2.41E-02;-1.54E+00;10.335;-0.000229658;0.000582746;;;;0.560492;-3.13E+00;-0.00575593;0
1.635;196.612;-0.000170442;-0.00842822;-0.168111;-1.74E-01;-9.17E-02;0;0;0;-0.046055;-1.22E-02;-1.55E+00;10.324;-0.000235606;0.000690816;;;;0.560473;-3.25E-01;-0.00574102;0
1.64;197.529;-0.000171678;-0.00851495;-0.168476;-1.74E-01;-9.97E-02;0;0;0;-0.0457608;-1.19E-04;-1.56E-01;103.132;-0.000234759;0.000782722;;;;0.560452;-3.18E+00;-0.00572844;0
1.645;198.445;-0.000172922;-0.0086017;-0.16884;-1.74E-01;-1.08E-01;0;0;0;-0.0454662;1.39E-02;-1.57E+00;103.025;-0.000229831;0.000858357;;;;0.56043;-3.18E+00;-0.00571817;0
1.65;199.361;-0.000174174;-0.00868846;-0.169202;-1.74E-01;-1.16E-02;0;0;0;-0.045171;2.79E-02;-1.58E-02;102.919;-0.000238779;0.000917013;;;;0.560408;-3.26E+00;-0.00571042;0
1.655;200.278;-0.000175433;-0.00877524;-0.169563;-1.74E-01;-1.24E-02;0;0;0;-0.0448755;4.25E-02;-1.59E-01;102.814;-0.000227709;0.000957561;;;;0.560387;-3.12E+00;-0.00570521;0
1.66;201.193;-0.000176699;-0.00886202;-0.169923;-1.74E-01;-1.32E-01;0;0;0;-0.0445795;5.82E-02;-1.60E+00;102.711;-0.000237034;0.000982557;;;;0.560367;-3.27E+00;-0.00570241;0
1.665;202.109;-0.000177973;-0.0089488;-0.170281;-1.74E-01;-1.40E-01;0;0;0;-0.0442832;7.44E-02;-1.61E-01;10.261;-0.000229167;0.000990798;;;;0.560347;-3.11E+00;-0.00570212;0
1.67;203.024;-0.000179254;-0.0090356;-0.170639;-1.74E-01;-1.49E-01;0;0;0;-0.0439867;9.35E-02;-1.61E+00;102.509;-0.000228697;0.000986155;;;;0.560329;-3.18E+00;-0.00570397;0
1.675;203.939;-0.000180543;-0.00912241;-0.170995;-1.73E-01;-1.57E-01;0;0;0;-0.0436902;1.13E-01;-1.62E+00;102.411;-0.000232054;0.000968539;;;;0.56031;-3.15E+00;-0.00570802;0
1.68;204.854;-0.000181838;-0.00920922;-0.171349;-1.73E-01;-1.65E-01;0;0;0;-0.0433939;1.32E-01;-1.62E+00;102.314;-0.000221094;0.000939874;;;;0.560291;-3.06E+00;-0.00571401;0
1.685;205.768;-0.000183141;-0.00929605;-0.171703;-1.72E-01;-1.74E-01;0;0;0;-0.0430979;1.52E-01;-1.61E+00;102.219;-0.000231078;0.000901592;;;;0.56027;-3.17E+00;-0.00572187;0
1.69;206.682;-0.000184452;-0.00938288;-0.172055;-1.71E-01;-1.82E-01;0;0;0;-0.0428021;1.72E-01;-1.61E+00;102.126;-0.000219234;0.000852547;;;;0.560248;-3.01E+00;-0.00573164;0
1.695;207.596;-0.000185769;-0.00946973;-0.172406;-1.71E-01;-1.90E-01;0;0;0;-0.0425067;1.93E-01;-1.60E+00;102.034;-0.000223985;0.000794585;;;;0.560225;-3.11E+00;-0.00574316;0
1.7;20.851;-0.000187093;-0.0095566;-0.172756;-1.70E-01;-1.98E-01;0;0;0;-0.0422117;2.12E-01;-1.59E+00;101.944;-0.000220937;0.000725518;;;;0.560201;-3.02E+00;-0.00575668;0
1.705;209.423;-0.000188424;-0.00964348;-0.173104;-1.69E-01;-2.07E-01;0;0;0;-0.041917;2.32E-01;-1.58E-01;101.856;-0.000214489;0.000646258;;;;0.560176;-2.99E+00;-0.00577202;0
1.71;210.335;-0.000189763;-0.00973038;-0.173451;-1.68E-01;-2.15E-02;0;0;0;-0.0416226;2.51E-02;-1.57E-01;101.769;-0.000221238;0.000556374;;;;0.560152;-3.04E+00;-0.00578934;0
1.715;211.248;-0.000191108;-0.00981731;-0.173797;-1.66E-03;-2.23E-01;0;0;0;-0.0413287;2.68E-01;-1.55E+00;101.683;-0.000208166;0.000455566;;;;0.560128;-2.88E+00;-0.00580855;0
1.72;21.216;-0.00019246;-0.00990426;-0.174142;-1.65E-01;-2.31E-01;0;0;0;-0.0410353;2.85E-01;-1.53E+00;101.599;-0.000215939;0.00034314;;;;0.560106;-3.01E+00;-0.00582987;0
1.725;213.071;-0.000193819;-0.00999124;-0.174485;-1.64E-01;-2.38E-03;0;0;0;-0.0407424;3.01E-01;-1.51E+00;101.516;-0.000206853;0.000222156;;;;0.560084;-2.84E+00;-0.00585281;0
1.73;213.982;-0.000195185;-0.0100783;-0.174827;-1.62E-01;-2.46E-01;0;0;0;-0.04045;3.17E-02;-1.49E+00;101.435;-0.000205583;0.00011941;;;;0.560064;-2.89E-01;-0.0058745;0
1.735;214.893;-0.000196557;-0.0101653;-0.175168;-1.61E-01;-2.54E-01;0;0;0;-0.0401586;3.31E-01;-1.46E+00;101.356;-0.000206072;1.34E+00;;;;0.560045;-2.83E+00;-0.00589766;0
1.74;215.803;-0.000197935;-0.0102524;-0.175508;-1.59E-01;-2.61E-01;0;0;0;-0.0398681;3.44E-01;-1.43E+00;101.278;-0.000195144;-9.97E+00;;;;0.560025;-2.74E+00;-0.00592171;0
1.745;216.713;-0.000199321;-0.0103395;-0.175846;-1.58E-01;-2.69E-02;0;0;0;-0.0395788;3.55E-01;-1.41E+00;101.203;-0.000202318;-0.000209009;;;;0.560006;-2.81E+00;-0.00594641;0
1.75;217.623;-0.000200712;-0.0104267;-0.176183;-1.56E-02;-2.76E-01;0;0;0;-0.0392908;3.64E-01;-1.37E+00;101.129;-0.000187849;-0.000320851;;;;0.559986;-2.62E+00;-0.00597158;0
